[
  {
    "id": 101,
    "name": "Café Tanger",
    "category": "cafe",
    "coords": { "lat": 35.7691, "lng": -5.7953 },
    "description": "Petit café cosy au centre-ville",
    "rating": 4.2,
    "tags": ["coffee", "local"]
  },
  {
    "id": 102,
    "name": "Restaurant Le Méditerranée",
    "category": "restaurant",
    "coords": { "lat": 35.7702, "lng": -5.7941 },
    "description": "Cuisine méditerranéenne avec terrasse",
    "rating": 4.5,
    "tags": ["mediterranean", "dining"]
  },
  {
    "id": 103,
    "name": "Parc Perdicaris",
    "category": "park",
    "coords": { "lat": 35.7710, "lng": -5.7930 },
    "description": "Grand parc pour se promener et faire du sport",
    "rating": 4.7,
    "tags": ["nature", "walking"]
  },
  {
    "id": 104,
    "name": "Musée de la Kasbah",
    "category": "museum",
    "coords": { "lat": 35.7725, "lng": -5.7922 },
    "description": "Histoire locale et exposition permanente",
    "rating": 4.3,
    "tags": ["history", "culture"]
  },
  {
    "id": 105,
    "name": "Plage de Malabata",
    "category": "beach",
    "coords": { "lat": 35.7735, "lng": -5.7910 },
    "description": "Plage populaire pour baignade et promenade",
    "rating": 4.6,
    "tags": ["sea", "sun"]
  }
]
